<?xml version="1.0" encoding="UTF-8"?>
<cities>
    <city name='Toronto'>
        <region>on</region>
        <lat>43.654805</lat>
        <long>-79.380595</long>
    </city>
    <city name='Montreal'>
        <region>qc</region>
        <lat>45.50108</lat>
        <long>-73.56814</long>
    </city>
    <city name='Ottawa'>
        <region>on</region>
        <lat>45.415387</lat>
        <long>-75.565701</long>
    </city>
    <city name='Edmonton'>
        <region>ab</region>
        <lat>53.594894</lat>
        <long>-113.463576</long>
    </city>
    <city name='Winnipeg'>
        <region>ma</region>
        <lat>49.897735</lat>
        <long>-97.134426</long>
    </city>
    <city name='Brampton'>
        <region>on</region>
        <lat>43.735508</lat>
        <long>-79.767844</long>
    </city>
    <city name='Seattle'>
        <region>wa</region>
        <lat>47.607286</lat>
        <long>-122.334005</long>
    </city>
    <city name='Moscow'>
        <region>id</region>
        <lat>46.731839</lat>
        <long>-117.01004</long>
    </city>
    <city name='Philadelphia'>
        <region>pe</region>
        <lat>39.961121</lat>
        <long>-75.160669</long>
    </city>
    <city name='Fargo'>
        <region>nd</region>
        <lat>46.876391</lat>
        <long>-96.783252</long>
    </city>
    <city name='Brooklyn'>
        <region>ny</region>
        <lat>40.679016</lat>
        <long>-73.936774</long>
    </city>
    <city name='Concord'>
        <region>nh</region>
        <lat>43.206977</lat>
        <long>-71.527225</long>
    </city>
    <city name='Springfield'>
        <region>il</region>
        <lat>39.781697</lat>
        <long>-89.651612</long>
    </city>
    <city name='Kamloops'>
        <region>bc</region>
        <lat>50.68777</lat>
        <long>-120.347863</long>
    </city>
    <city name='Dallas'>
        <region>tx</region>
        <lat>32.775833</lat>
        <long>-96.796667</long>
    </city>
    <city name='Nashville'>
        <region>tn</region>
        <lat>36.162725</lat>
        <long>-86.78182</long>
    </city>
    <city name='Salt_Lake_City'>
        <region>ut</region>
        <lat>40.75</lat>
        <long>-111.883333</long>
    </city>
    <city name='Houston'>
        <region>tx</region>
        <lat>29.762778</lat>
        <long>-95.383056</long>
    </city>
    <city name='Atlanta'>
        <region>ga</region>
        <lat>33.755</lat>
        <long>-84.39</long>
    </city>
</cities>
